{
  "features": [
    {
      "properties": {
        "name": "Ajman",
        "city": "Ajman",
        "country": "United Arab Emirates",
        "alias": [],
        "regions": [],
        "coordinates": [55.5136433, 25.4052165],
        "province": "Ajman",
        "timezone": "Asia/Dubai",
        "unlocs": ["AEAJM"],
        "code": "52000",
        "port_code": "AEAJM"
      },
      "geometry": { "type": "Point", "coordinates": [55.5136433, 25.4052165] }
    },
    {
      "properties": {
        "name": "Abu Dhabi",
        "coordinates": [54.37, 24.47],
        "city": "Abu Dhabi",
        "province": "Abu Z\u00b8aby [Abu Dhabi]",
        "country": "United Arab Emirates",
        "alias": [],
        "regions": [],
        "timezone": "Asia/Dubai",
        "unlocs": ["AEAUH"],
        "code": "52001",
        "port_code": "AEAUH"
      },
      "geometry": { "type": "Point", "coordinates": [54.37, 24.47] }
    },
    {
      "properties": {
        "name": "Dubai",
        "coordinates": [55.27, 25.25],
        "city": "Dubai",
        "province": "Dubayy [Dubai]",
        "country": "United Arab Emirates",
        "alias": [],
        "regions": [],
        "timezone": "Asia/Dubai",
        "unlocs": ["AEDXB"],
        "code": "52005",
        "port_code": "AEDXB"
      },
      "geometry": { "type": "Point", "coordinates": [55.27, 25.25] }
    },
    {
      "properties": {
        "name": "Al Fujayrah",
        "coordinates": [56.33, 25.12],
        "city": "Al Fujayrah",
        "province": "Al Fujayrah",
        "country": "United Arab Emirates",
        "alias": [],
        "regions": [],
        "timezone": "Asia/Dubai",
        "unlocs": ["AEFJR"],
        "port_code": "AEFJR"
      },
      "geometry": { "type": "Point", "coordinates": [56.33, 25.12] }
    },
    {
      "properties": {
        "name": "Jebel Ali",
        "city": "Jebel Ali",
        "country": "United Arab Emirates",
        "alias": [],
        "regions": [],
        "coordinates": [55.0272904, 24.9857145],
        "province": "Dubai",
        "timezone": "Asia/Dubai",
        "unlocs": ["AEJEA"],
        "code": "52051",
        "port_code": "AEJEA"
      },
      "geometry": { "type": "Point", "coordinates": [55.0272904, 24.9857145] }
    },
    {
      "properties": {
        "name": "Jebel Dhanna",
        "city": "Jebel Dhanna",
        "country": "United Arab Emirates",
        "alias": [],
        "regions": [],
        "coordinates": [52.6126027, 24.1915137],
        "province": "Abu Dhabi",
        "timezone": "Asia/Dubai",
        "unlocs": ["AEJED"],
        "code": "52050",
        "port_code": "AEJED"
      },
      "geometry": { "type": "Point", "coordinates": [52.6126027, 24.1915137] }
    },
    {
      "properties": {
        "name": "Khor al Fakkan",
        "coordinates": [56.35, 25.33],
        "city": "Khor al Fakkan",
        "country": "United Arab Emirates",
        "alias": [],
        "regions": [],
        "timezone": "Asia/Dubai",
        "unlocs": ["AEKLF"],
        "port_code": "AEKLF"
      },
      "geometry": { "type": "Point", "coordinates": [56.35, 25.33] }
    },
    {
      "properties": {
        "name": "Port Rashid",
        "city": "Port Rashid",
        "country": "United Arab Emirates",
        "alias": [],
        "regions": [],
        "coordinates": [55.2756505, 25.284755],
        "province": "Dubai",
        "timezone": "Asia/Dubai",
        "unlocs": ["AEPRA"],
        "code": "52005",
        "port_code": "AEPRA"
      },
      "geometry": { "type": "Point", "coordinates": [55.2756505, 25.284755] }
    },
    {
      "properties": {
        "name": "Umm al Qaiwain",
        "coordinates": [55.55, 25.57],
        "city": "Umm al Qaiwain",
        "country": "United Arab Emirates",
        "alias": [],
        "regions": [],
        "province": "Umm Al Quwain",
        "timezone": "Asia/Dubai",
        "unlocs": ["AEQIW"],
        "port_code": "AEQIW"
      },
      "geometry": { "type": "Point", "coordinates": [55.55, 25.57] }
    },
    {
      "properties": {
        "name": "Ras al Khaimah",
        "coordinates": [55.95, 25.78],
        "city": "Ras al Khaimah",
        "country": "United Arab Emirates",
        "alias": [],
        "regions": [],
        "province": "Ras al Khaimah",
        "timezone": "Asia/Dubai",
        "unlocs": ["AERKT"],
        "code": "52000",
        "port_code": "AERKT"
      },
      "geometry": { "type": "Point", "coordinates": [55.95, 25.78] }
    },
    {
      "properties": {
        "name": "Ar Ruways",
        "coordinates": [52.73, 24.12],
        "city": "Ar Ruways",
        "country": "United Arab Emirates",
        "alias": [],
        "regions": [],
        "province": "Abu Dhabi",
        "timezone": "Asia/Dubai",
        "unlocs": ["AERUW"],
        "port_code": "AERUW"
      },
      "geometry": { "type": "Point", "coordinates": [52.73, 24.12] }
    },
    {
      "properties": {
        "name": "Sharjah",
        "coordinates": [55.38, 25.35],
        "city": "Sharjah",
        "province": "Ash Shariqah [Sharjah]",
        "country": "United Arab Emirates",
        "alias": [],
        "regions": [],
        "timezone": "Asia/Dubai",
        "unlocs": ["AESHJ"],
        "code": "52070",
        "port_code": "AESHJ"
      },
      "geometry": { "type": "Point", "coordinates": [55.38, 25.35] }
    },
    {
      "properties": {
        "name": "Antigua",
        "city": "Antigua",
        "country": "Antigua and Barbuda",
        "alias": [],
        "regions": [],
        "coordinates": [-61.8175207, 17.0746557],
        "timezone": "America/Antigua",
        "unlocs": ["AGANU"],
        "code": "24831",
        "port_code": "AGANU"
      },
      "geometry": { "type": "Point", "coordinates": [-61.8175207, 17.0746557] }
    },
    {
      "properties": {
        "name": "Saint John's",
        "coordinates": [-61.85, 17.12],
        "city": "Saint John's",
        "country": "Antigua and Barbuda",
        "alias": [],
        "regions": [],
        "province": "Saint John",
        "timezone": "America/Antigua",
        "unlocs": ["AGSJO"],
        "code": "24831",
        "port_code": "AGSJO"
      },
      "geometry": { "type": "Point", "coordinates": [-61.85, 17.12] }
    },
    {
      "properties": {
        "name": "Blowing Point",
        "city": "Blowing Point",
        "country": "Anguilla",
        "alias": [],
        "regions": [],
        "coordinates": [-63.093518, 18.177343],
        "timezone": "America/Anguilla",
        "unlocs": ["AIBLP"],
        "code": "24821",
        "port_code": "AIBLP"
      },
      "geometry": { "type": "Point", "coordinates": [-63.093518, 18.177343] }
    },
    {
      "properties": {
        "name": "Road Bay",
        "city": "Road Bay",
        "country": "Anguilla",
        "alias": [],
        "regions": [],
        "coordinates": [-63.0653265, 18.2207493],
        "timezone": "America/Anguilla",
        "unlocs": ["AIRBY"],
        "code": "24821",
        "port_code": "AIRBY"
      },
      "geometry": { "type": "Point", "coordinates": [-63.0653265, 18.2207493] }
    },
    {
      "properties": {
        "name": "Durres",
        "city": "Durr\u00ebs",
        "country": "Albania",
        "alias": [],
        "regions": [],
        "coordinates": [19.4616074, 41.3328072],
        "timezone": "Europe/Tirane",
        "unlocs": ["ALDRZ"],
        "code": "48109",
        "port_code": "ALDRZ"
      },
      "geometry": { "type": "Point", "coordinates": [19.4616074, 41.3328072] }
    },
    {
      "properties": {
        "name": "Bonaire",
        "city": "Bonaire",
        "country": "Netherlands Antilles",
        "alias": [],
        "regions": [],
        "coordinates": [-68.26238219999999, 12.2018902],
        "timezone": "America/Curacao",
        "unlocs": ["ANBON"],
        "port_code": "ANBON"
      },
      "geometry": {
        "type": "Point",
        "coordinates": [-68.26238219999999, 12.2018902]
      }
    },
    {
      "properties": {
        "name": "Curacao",
        "city": "Curacao",
        "country": "Netherlands Antilles",
        "alias": [],
        "regions": [],
        "coordinates": [-68.8824233, 12.1224221],
        "province": "Cura\u00e7ao",
        "timezone": "America/Curacao",
        "unlocs": ["ANCUR"],
        "port_code": "ANCUR"
      },
      "geometry": { "type": "Point", "coordinates": [-68.8824233, 12.1224221] }
    },
    {
      "properties": {
        "name": "Sint Eustatius (Antilles)",
        "city": "Sint Eustatius (Antilles)",
        "country": "Netherlands",
        "alias": [],
        "regions": [],
        "coordinates": [-63.08416659999999, 18.0348259],
        "province": "Sint Maarten",
        "timezone": "America/Curacao",
        "unlocs": ["ANEUX"],
        "port_code": "ANEUX"
      },
      "geometry": {
        "type": "Point",
        "coordinates": [-63.08416659999999, 18.0348259]
      }
    },
    {
      "properties": {
        "name": "Galisby",
        "city": "Galisby",
        "country": "Netherlands Antilles",
        "alias": [],
        "regions": [],
        "coordinates": [12.1686756, -68.4486145],
        "unlocs": ["ANGSB"],
        "port_code": "ANGSB"
      },
      "geometry": { "type": "Point", "coordinates": [12.1686756, -68.4486145] }
    },
    {
      "properties": {
        "name": "Philipsburg",
        "city": "Philipsburg",
        "country": "Netherlands Antilles",
        "alias": [],
        "regions": [],
        "coordinates": [-63.04713709999999, 18.0295839],
        "province": "Sint Maarten",
        "timezone": "America/Curacao",
        "unlocs": ["ANPHI"],
        "port_code": "ANPHI"
      },
      "geometry": {
        "type": "Point",
        "coordinates": [-63.04713709999999, 18.0295839]
      }
    },
    {
      "properties": {
        "name": "St Maarten",
        "city": "St Maarten",
        "country": "Netherlands Antilles",
        "alias": [],
        "regions": [],
        "coordinates": [-68.81088489999999, 12.2248767],
        "timezone": "America/Curacao",
        "unlocs": ["ANSXM"],
        "port_code": "ANSXM"
      },
      "geometry": {
        "type": "Point",
        "coordinates": [-68.81088489999999, 12.2248767]
      }
    },
    {
      "properties": {
        "name": "Willemstad",
        "city": "Willemstad",
        "country": "Netherlands Antilles",
        "alias": [],
        "regions": [],
        "coordinates": [-68.8824233, 12.1224221],
        "province": "Cura\u00e7ao",
        "timezone": "America/Curacao",
        "unlocs": ["ANWIL"],
        "port_code": "ANWIL"
      },
      "geometry": { "type": "Point", "coordinates": [-68.8824233, 12.1224221] }
    },
    {
      "properties": {
        "name": "Cabinda",
        "city": "Cabinda",
        "country": "Angola",
        "alias": [],
        "regions": [],
        "coordinates": [12.197583, -5.570573899999999],
        "province": "Cabinda",
        "timezone": "Africa/Luanda",
        "unlocs": ["AOCAB"],
        "code": "76231",
        "port_code": "AOCAB"
      },
      "geometry": {
        "type": "Point",
        "coordinates": [12.197583, -5.570573899999999]
      }
    },
    {
      "properties": {
        "name": "Luanda",
        "city": "Luanda",
        "country": "Angola",
        "alias": [],
        "regions": [],
        "coordinates": [13.2894368, -8.839987599999999],
        "province": "Luanda",
        "timezone": "Africa/Luanda",
        "unlocs": ["AOLAD"],
        "code": "76278",
        "port_code": "AOLAD"
      },
      "geometry": {
        "type": "Point",
        "coordinates": [13.2894368, -8.839987599999999]
      }
    },
    {
      "properties": {
        "name": "Lobito",
        "city": "Lobito",
        "country": "Angola",
        "alias": [],
        "regions": [],
        "coordinates": [13.5610451, -12.3757287],
        "province": "Benguela",
        "timezone": "Africa/Luanda",
        "unlocs": ["AOLOB"],
        "code": "76274",
        "port_code": "AOLOB"
      },
      "geometry": { "type": "Point", "coordinates": [13.5610451, -12.3757287] }
    },
    {
      "properties": {
        "name": "Namibe",
        "city": "Namibe",
        "country": "Angola",
        "alias": [],
        "regions": [],
        "coordinates": [12.1575544, -15.1978317],
        "province": "Namibe",
        "timezone": "Africa/Luanda",
        "unlocs": ["AOMSZ"],
        "code": "76279",
        "port_code": "AOMSZ"
      },
      "geometry": { "type": "Point", "coordinates": [12.1575544, -15.1978317] }
    },
    {
      "properties": {
        "name": "Soyo",
        "city": "Soyo",
        "country": "Angola",
        "alias": [],
        "regions": [],
        "coordinates": [12.3521148, -6.1410265],
        "province": "Zaire",
        "timezone": "Africa/Luanda",
        "unlocs": ["AOSZA"],
        "code": "76281",
        "port_code": "AOSZA"
      },
      "geometry": { "type": "Point", "coordinates": [12.3521148, -6.1410265] }
    },
    {
      "properties": {
        "name": "Bahia Blanca",
        "coordinates": [-62.28, -38.72],
        "city": "Bah\u00eda Blanca",
        "province": "Buenos Aires",
        "country": "Argentina",
        "alias": [],
        "regions": [],
        "timezone": "America/Cordoba",
        "unlocs": ["ARBHI"],
        "code": "35701",
        "port_code": "ARBHI"
      },
      "geometry": { "type": "Point", "coordinates": [-62.28, -38.72] }
    },
    {
      "properties": {
        "name": "Buenos Aires",
        "coordinates": [-58.67, -34.58],
        "city": "Buenos Aires",
        "province": "Ciudad Aut\u00f3noma de Buenos Aires",
        "country": "Argentina",
        "alias": [],
        "regions": [],
        "timezone": "America/Cordoba",
        "unlocs": ["ARBUE"],
        "code": "35705",
        "port_code": "ARBUE"
      },
      "geometry": { "type": "Point", "coordinates": [-58.67, -34.58] }
    },
    {
      "properties": {
        "name": "Campana",
        "coordinates": [-58.95, -34.15],
        "city": "Campana",
        "province": "Buenos Aires",
        "country": "Argentina",
        "alias": [],
        "regions": [],
        "timezone": "America/Cordoba",
        "unlocs": ["ARCMP"],
        "code": "35711",
        "port_code": "ARCMP"
      },
      "geometry": { "type": "Point", "coordinates": [-58.95, -34.15] }
    },
    {
      "properties": {
        "name": "Corrientes",
        "city": "Corrientes",
        "province": "Corrientes",
        "country": "Argentina",
        "alias": [],
        "regions": [],
        "coordinates": [-58.8306349, -27.4692131],
        "timezone": "America/Cordoba",
        "unlocs": ["ARCNQ"],
        "code": "35700",
        "port_code": "ARCNQ"
      },
      "geometry": { "type": "Point", "coordinates": [-58.8306349, -27.4692131] }
    },
    {
      "properties": {
        "name": "Comodoro Rivadavia",
        "city": "Comodoro Rivadavia",
        "province": "Chubut",
        "country": "Argentina",
        "alias": [],
        "regions": [],
        "coordinates": [-67.4822429, -45.8656149],
        "timezone": "America/Cordoba",
        "unlocs": ["ARCRD"],
        "code": "35702",
        "port_code": "ARCRD"
      },
      "geometry": { "type": "Point", "coordinates": [-67.4822429, -45.8656149] }
    },
    {
      "properties": {
        "name": "Caleta Olivia",
        "city": "Caleta Olivia",
        "province": "Santa Cruz",
        "country": "Argentina",
        "alias": [],
        "regions": [],
        "coordinates": [-67.5171533, -46.4425647],
        "timezone": "America/Cordoba",
        "unlocs": ["ARCVI"],
        "code": "35703",
        "port_code": "ARCVI"
      },
      "geometry": { "type": "Point", "coordinates": [-67.5171533, -46.4425647] }
    },
    {
      "properties": {
        "name": "Delta Dock",
        "city": "Delta Dock",
        "province": "Rio Parana",
        "country": "Argentina",
        "alias": [],
        "regions": [],
        "coordinates": [-34.0447572, -59.199761],
        "unlocs": ["ARDDC"],
        "code": "35700",
        "port_code": "ARDDC"
      },
      "geometry": { "type": "Point", "coordinates": [-34.0447572, -59.199761] }
    },
    {
      "properties": {
        "name": "La Plata",
        "coordinates": [-57.88, -34.85],
        "city": "La Plata",
        "province": "Buenos Aires",
        "country": "Argentina",
        "alias": [],
        "regions": [],
        "timezone": "America/Cordoba",
        "unlocs": ["ARLPG"],
        "code": "35737",
        "port_code": "ARLPG"
      },
      "geometry": { "type": "Point", "coordinates": [-57.88, -34.85] }
    },
    {
      "properties": {
        "name": "Mar del Plata",
        "coordinates": [-57.53, -38.05],
        "city": "Mar del Plata",
        "province": "Buenos Aires",
        "country": "Argentina",
        "alias": [],
        "regions": [],
        "timezone": "America/Cordoba",
        "unlocs": ["ARMDQ"],
        "code": "35739",
        "port_code": "ARMDQ"
      },
      "geometry": { "type": "Point", "coordinates": [-57.53, -38.05] }
    },
    {
      "properties": {
        "name": "Necochea",
        "city": "Necochea",
        "province": "Buenos Aires",
        "country": "Argentina",
        "alias": [],
        "regions": [],
        "coordinates": [-58.73960879999999, -38.5544968],
        "timezone": "America/Cordoba",
        "unlocs": ["ARNEC"],
        "code": "35741",
        "port_code": "ARNEC"
      },
      "geometry": {
        "type": "Point",
        "coordinates": [-58.73960879999999, -38.5544968]
      }
    },
    {
      "properties": {
        "name": "Goya",
        "city": "Goya",
        "province": "Corrientes",
        "country": "Argentina",
        "alias": [],
        "regions": [],
        "coordinates": [-59.2643242, -29.1442242],
        "timezone": "America/Cordoba",
        "unlocs": ["AROYA"],
        "code": "35700",
        "port_code": "AROYA"
      },
      "geometry": { "type": "Point", "coordinates": [-59.2643242, -29.1442242] }
    },
    {
      "properties": {
        "name": "Puerto Madryn",
        "coordinates": [-65.03, -42.75],
        "city": "Puerto Madryn",
        "province": "Chubut",
        "country": "Argentina",
        "alias": [],
        "regions": [],
        "timezone": "America/Cordoba",
        "unlocs": ["ARPMY"],
        "code": "35740",
        "port_code": "ARPMY"
      },
      "geometry": { "type": "Point", "coordinates": [-65.03, -42.75] }
    },
    {
      "properties": {
        "name": "Puerto Deseado",
        "coordinates": [-65.9, -47.75],
        "city": "Puerto Deseado",
        "province": "Santa Cruz",
        "country": "Argentina",
        "alias": [],
        "regions": [],
        "timezone": "America/Cordoba",
        "unlocs": ["ARPUD"],
        "code": "35745",
        "port_code": "ARPUD"
      },
      "geometry": { "type": "Point", "coordinates": [-65.9, -47.75] }
    },
    {
      "properties": {
        "name": "Rio Grande",
        "coordinates": [-67.7, -53.78],
        "city": "R\u00edo Grande",
        "province": "Tierra del Fuego",
        "country": "Argentina",
        "alias": [],
        "regions": [],
        "timezone": "America/Cordoba",
        "unlocs": ["ARRGA"],
        "code": "35700",
        "port_code": "ARRGA"
      },
      "geometry": { "type": "Point", "coordinates": [-67.7, -53.78] }
    },
    {
      "properties": {
        "name": "Rio Gallegos",
        "coordinates": [-69.22, -51.63],
        "city": "R\u00edo Gallegos",
        "province": "Santa Cruz",
        "country": "Argentina",
        "alias": [],
        "regions": [],
        "timezone": "America/Cordoba",
        "unlocs": ["ARRGL"],
        "code": "35700",
        "port_code": "ARRGL"
      },
      "geometry": { "type": "Point", "coordinates": [-69.22, -51.63] }
    },
    {
      "properties": {
        "name": "Rio Cullen",
        "city": "Rio Cullen",
        "province": "Zaire",
        "country": "Argentina",
        "unlocs": ["ARRIC"],
        "timezone": "America/Argentina",
        "coordinates": [-68.3523021, -52.8955609],
        "alias": [],
        "regions": [],
        "code": "35700",
        "port_code": "ARRIC"
      },
      "geometry": { "type": "Point", "coordinates": [-68.3523021, -52.8955609] }
    },
    {
      "properties": {
        "name": "Rosario",
        "coordinates": [-60.65, -32.95],
        "city": "Rosario",
        "province": "Santa Fe",
        "country": "Argentina",
        "alias": [],
        "regions": [],
        "timezone": "America/Cordoba",
        "unlocs": ["ARROS"],
        "code": "35771",
        "port_code": "ARROS"
      },
      "geometry": { "type": "Point", "coordinates": [-60.65, -32.95] }
    },
    {
      "properties": {
        "name": "San Antonio Este",
        "coordinates": [-64.73, -40.8],
        "city": "San Antonio Este",
        "province": "R\u00edo Negro",
        "country": "Argentina",
        "alias": [],
        "regions": [],
        "timezone": "America/Cordoba",
        "unlocs": ["ARSAE"],
        "code": "35700",
        "port_code": "ARSAE"
      },
      "geometry": { "type": "Point", "coordinates": [-64.73, -40.8] }
    },
    {
      "properties": {
        "name": "Santa Fe",
        "coordinates": [-60.68, -31.6],
        "city": "Santa Fe",
        "province": "Santa Fe",
        "country": "Argentina",
        "alias": [],
        "regions": [],
        "timezone": "America/Cordoba",
        "unlocs": ["ARSFN"],
        "code": "35791",
        "port_code": "ARSFN"
      },
      "geometry": { "type": "Point", "coordinates": [-60.68, -31.6] }
    },
    {
      "properties": {
        "name": "San Lorenzo",
        "city": "San Lorenzo",
        "province": "La Pampa",
        "country": "Argentina",
        "alias": [],
        "regions": [],
        "coordinates": [-60.7238722, -32.8072889],
        "timezone": "America/Cordoba",
        "unlocs": ["ARSLO"],
        "code": "35779",
        "port_code": "ARSLO"
      },
      "geometry": { "type": "Point", "coordinates": [-60.7238722, -32.8072889] }
    },
    {
      "properties": {
        "name": "San Nicolas de los Arroyos",
        "coordinates": [-60.23, -33.33],
        "city": "San Nicol\u00e1s de los Arroyos",
        "province": "Buenos Aires",
        "country": "Argentina",
        "alias": [],
        "regions": [],
        "timezone": "America/Cordoba",
        "unlocs": ["ARSNS"],
        "code": "35781",
        "port_code": "ARSNS"
      },
      "geometry": { "type": "Point", "coordinates": [-60.23, -33.33] }
    },
    {
      "properties": {
        "name": "San Pedro",
        "coordinates": [-59.17, -33.68],
        "city": "San Pedro",
        "province": "Entre R\u00edos",
        "country": "Argentina",
        "alias": [],
        "regions": [],
        "timezone": "America/Cordoba",
        "unlocs": ["ARSPD"],
        "code": "35785",
        "port_code": "ARSPD"
      },
      "geometry": { "type": "Point", "coordinates": [-59.17, -33.68] }
    },
    {
      "properties": {
        "name": "Ushuaia",
        "coordinates": [-68.3, -54.8],
        "city": "Ushuaia",
        "province": "Tierra del Fuego",
        "country": "Argentina",
        "alias": [],
        "regions": [],
        "timezone": "America/Cordoba",
        "unlocs": ["ARUSH"],
        "code": "35700",
        "port_code": "ARUSH"
      },
      "geometry": { "type": "Point", "coordinates": [-68.3, -54.8] }
    },
    {
      "properties": {
        "name": "Zarate",
        "coordinates": [-59.03, -34.1],
        "city": "Z\u00e1rate",
        "province": "Buenos Aires",
        "country": "Argentina",
        "alias": [],
        "regions": [],
        "timezone": "America/Cordoba",
        "unlocs": ["ARZAE"],
        "code": "35796",
        "port_code": "ARZAE"
      },
      "geometry": { "type": "Point", "coordinates": [-59.03, -34.1] }
    },
    {
      "properties": {
        "name": "Pago Pago",
        "city": "Pago Pago",
        "country": "American Samoa",
        "alias": [],
        "regions": [],
        "coordinates": [-170.7020359, -14.2756319],
        "province": "Eastern",
        "timezone": "Pacific/Pago_Pago",
        "unlocs": ["ASPPG"],
        "code": "95101",
        "port_code": "ASPPG"
      },
      "geometry": {
        "type": "Point",
        "coordinates": [-170.7020359, -14.2756319]
      }
    },
    {
      "properties": {
        "timezone": "Europe/Vienna",
        "coordinates": [15.7733196, 48.0337274],
        "name": "Hainfeld",
        "city": "Hainfeld",
        "province": "Nieder\u00f6sterreich",
        "country": "Austria",
        "alias": [],
        "regions": [],
        "unlocs": ["ATLTX"],
        "code": "60200",
        "port_code": "ATLTX"
      },
      "geometry": { "type": "Point", "coordinates": [15.7733196, 48.0337274] }
    },
    {
      "properties": {
        "name": "Abbot Point",
        "city": "Abbot Point",
        "province": "Queensland",
        "country": "Australia",
        "alias": [],
        "regions": [],
        "coordinates": [148.0846726, -19.9078861],
        "timezone": "Australia/Brisbane",
        "unlocs": ["AUABP"],
        "code": "60200",
        "port_code": "AUABP"
      },
      "geometry": { "type": "Point", "coordinates": [148.0846726, -19.9078861] }
    },
    {
      "properties": {
        "name": "Adelaide",
        "coordinates": [138.58, -34.92],
        "city": "Adelaide",
        "province": "South Australia",
        "country": "Australia",
        "alias": [],
        "regions": [],
        "timezone": "Australia/Adelaide",
        "unlocs": ["AUADL"],
        "code": "60201",
        "port_code": "AUADL"
      },
      "geometry": { "type": "Point", "coordinates": [138.58, -34.92] }
    },
    {
      "properties": {
        "name": "Ardrossan",
        "city": "Ardrossan",
        "province": "South Australia",
        "country": "Australia",
        "alias": [],
        "regions": [],
        "coordinates": [137.9174283, -34.4230702],
        "timezone": "Australia/Adelaide",
        "unlocs": ["AUARD"],
        "code": "60276",
        "port_code": "AUARD"
      },
      "geometry": { "type": "Point", "coordinates": [137.9174283, -34.4230702] }
    },
    {
      "properties": {
        "timezone": "Australia/Perth",
        "coordinates": [119.379376, -34.3926208],
        "name": "Bremer Bay",
        "city": "Bremer Bay",
        "province": "Western Australia",
        "country": "Australia",
        "alias": [],
        "regions": [],
        "unlocs": ["AUBBY"],
        "code": "60200",
        "port_code": "AUBBY"
      },
      "geometry": { "type": "Point", "coordinates": [119.379376, -34.3926208] }
    },
    {
      "properties": {
        "name": "Bell Bay",
        "city": "Bell Bay",
        "province": "Tasmania",
        "country": "Australia",
        "alias": [],
        "regions": [],
        "coordinates": [146.8635558, -41.1154147],
        "timezone": "Australia/Melbourne",
        "unlocs": ["AUBEL"],
        "code": "60290",
        "port_code": "AUBEL"
      },
      "geometry": { "type": "Point", "coordinates": [146.8635558, -41.1154147] }
    },
    {
      "properties": {
        "name": "Brisbane",
        "coordinates": [153.02, -27.47],
        "city": "Brisbane",
        "province": "Queensland",
        "country": "Australia",
        "alias": [],
        "regions": [],
        "timezone": "Australia/Brisbane",
        "unlocs": ["AUBNE"],
        "code": "60210",
        "port_code": "AUBNE"
      },
      "geometry": { "type": "Point", "coordinates": [153.02, -27.47] }
    },
    {
      "properties": {
        "name": "Booby Island",
        "coordinates": [141.92, -10.6],
        "city": "Booby Island",
        "province": "Queensland",
        "country": "Australia",
        "alias": [],
        "regions": [],
        "timezone": "Australia/Brisbane",
        "unlocs": ["AUBOO"],
        "code": "60200",
        "port_code": "AUBOO"
      },
      "geometry": { "type": "Point", "coordinates": [141.92, -10.6] }
    },
    {
      "properties": {
        "name": "Burnie",
        "city": "Burnie",
        "province": "Tasmania",
        "country": "Australia",
        "alias": [],
        "regions": [],
        "coordinates": [145.9068513, -41.0524649],
        "timezone": "Australia/Melbourne",
        "unlocs": ["AUBWT"],
        "code": "60291",
        "port_code": "AUBWT"
      },
      "geometry": { "type": "Point", "coordinates": [145.9068513, -41.0524649] }
    },
    {
      "properties": {
        "timezone": "Australia/Perth",
        "coordinates": [116.1010108, -31.4700549],
        "name": "Chittering",
        "city": "Chittering",
        "province": "Western Australia",
        "country": "Australia",
        "alias": [],
        "regions": [],
        "unlocs": ["AUCHT"],
        "code": "60200",
        "port_code": "AUCHT"
      },
      "geometry": { "type": "Point", "coordinates": [116.1010108, -31.4700549] }
    },
    {
      "properties": {
        "name": "Cairns",
        "city": "Cairns",
        "province": "Queensland",
        "country": "Australia",
        "alias": [],
        "regions": [],
        "coordinates": [145.7708595, -16.9203338],
        "timezone": "Australia/Brisbane",
        "unlocs": ["AUCNS"],
        "code": "60200",
        "port_code": "AUCNS"
      },
      "geometry": { "type": "Point", "coordinates": [145.7708595, -16.9203338] }
    },
    {
      "properties": {
        "name": "Devonport",
        "city": "Devonport",
        "province": "Tasmania",
        "country": "Australia",
        "alias": [],
        "regions": [],
        "coordinates": [146.3609534, -41.1783532],
        "timezone": "Australia/Melbourne",
        "unlocs": ["AUDPO"],
        "code": "60299",
        "port_code": "AUDPO"
      },
      "geometry": { "type": "Point", "coordinates": [146.3609534, -41.1783532] }
    },
    {
      "properties": {
        "name": "Darwin",
        "coordinates": [130.83, -12.45],
        "city": "Darwin",
        "province": "Northern Territory",
        "country": "Australia",
        "alias": [],
        "regions": [],
        "timezone": "Australia/Darwin",
        "unlocs": ["AUDRW"],
        "code": "60220",
        "port_code": "AUDRW"
      },
      "geometry": { "type": "Point", "coordinates": [130.83, -12.45] }
    },
    {
      "properties": {
        "name": "Fremantle",
        "city": "Fremantle",
        "province": "Western Australia",
        "country": "Australia",
        "alias": [],
        "regions": [],
        "coordinates": [115.7471797, -32.0560399],
        "timezone": "Australia/Perth",
        "unlocs": ["AUFRE"],
        "code": "60222",
        "port_code": "AUFRE"
      },
      "geometry": { "type": "Point", "coordinates": [115.7471797, -32.0560399] }
    },
    {
      "properties": {
        "name": "Gladstone",
        "city": "Gladstone",
        "province": "Queensland",
        "country": "Australia",
        "alias": [],
        "regions": [],
        "coordinates": [151.2597998, -23.8487083],
        "timezone": "Australia/Brisbane",
        "unlocs": ["AUGLT"],
        "code": "60231",
        "port_code": "AUGLT"
      },
      "geometry": { "type": "Point", "coordinates": [151.2597998, -23.8487083] }
    },
    {
      "properties": {
        "name": "Gove",
        "city": "Gove",
        "province": "Northern Territory",
        "country": "Australia",
        "alias": [],
        "regions": [],
        "coordinates": [130.8717878, -12.3780716],
        "timezone": "Australia/Darwin",
        "unlocs": ["AUGOV"],
        "code": "60227",
        "port_code": "AUGOV"
      },
      "geometry": { "type": "Point", "coordinates": [130.8717878, -12.3780716] }
    },
    {
      "properties": {
        "name": "Hobart",
        "coordinates": [147.3, -42.87],
        "city": "Hobart",
        "province": "Tasmania",
        "country": "Australia",
        "alias": [],
        "regions": [],
        "timezone": "Australia/Melbourne",
        "unlocs": ["AUHBA"],
        "code": "60295",
        "port_code": "AUHBA"
      },
      "geometry": { "type": "Point", "coordinates": [147.3, -42.87] }
    },
    {
      "properties": {
        "name": "Hay Point",
        "city": "Hay Point",
        "province": "Queensland",
        "country": "Australia",
        "alias": [],
        "regions": [],
        "coordinates": [149.2921629, -21.3055785],
        "timezone": "Australia/Brisbane",
        "unlocs": ["AUHPT"],
        "code": "60212",
        "port_code": "AUHPT"
      },
      "geometry": { "type": "Point", "coordinates": [149.2921629, -21.3055785] }
    },
    {
      "properties": {
        "name": "Launceston",
        "city": "Launceston",
        "province": "Tasmania",
        "country": "Australia",
        "alias": [],
        "regions": [],
        "coordinates": [147.1124679, -41.4261807],
        "timezone": "Australia/Melbourne",
        "unlocs": ["AULST"],
        "code": "60297",
        "port_code": "AULST"
      },
      "geometry": { "type": "Point", "coordinates": [147.1124679, -41.4261807] }
    },
    {
      "properties": {
        "name": "Melbourne",
        "coordinates": [144.97, -37.82],
        "city": "Melbourne",
        "province": "Victoria",
        "country": "Australia",
        "alias": [],
        "regions": [],
        "timezone": "Australia/Hobart",
        "unlocs": ["AUMEL"],
        "code": "60237",
        "port_code": "AUMEL"
      },
      "geometry": { "type": "Point", "coordinates": [144.97, -37.82] }
    },
    {
      "properties": {
        "timezone": "Australia/Melbourne",
        "coordinates": [147.0636496, -42.7806827],
        "name": "New Norfolk",
        "city": "New Norfolk",
        "province": "Tasmania",
        "country": "Australia",
        "alias": [],
        "regions": [],
        "unlocs": ["AUNLK"],
        "code": "60200",
        "port_code": "AUNLK"
      },
      "geometry": { "type": "Point", "coordinates": [147.0636496, -42.7806827] }
    },
    {
      "properties": {
        "name": "Newcastle",
        "city": "Newcastle",
        "province": "New South Wales",
        "country": "Australia",
        "alias": [],
        "regions": [],
        "coordinates": [151.7789205, -32.926689],
        "timezone": "Australia/Sydney",
        "unlocs": ["AUNTL"],
        "code": "60240",
        "port_code": "AUNTL"
      },
      "geometry": { "type": "Point", "coordinates": [151.7789205, -32.926689] }
    },
    {
      "properties": {
        "name": "Port Adelaide",
        "city": "Port Adelaide",
        "province": "South Australia",
        "country": "Australia",
        "alias": [],
        "regions": [],
        "coordinates": [138.5073616, -34.8477448],
        "timezone": "Australia/Adelaide",
        "unlocs": ["AUPAE"],
        "code": "60201",
        "port_code": "AUPAE"
      },
      "geometry": { "type": "Point", "coordinates": [138.5073616, -34.8477448] }
    },
    {
      "properties": {
        "name": "Port Hedland",
        "city": "Port Hedland",
        "province": "Western Australia",
        "country": "Australia",
        "alias": [],
        "regions": [],
        "coordinates": [118.5752577, -20.3116266],
        "timezone": "Australia/Perth",
        "unlocs": ["AUPHE"],
        "code": "60219",
        "port_code": "AUPHE"
      },
      "geometry": { "type": "Point", "coordinates": [118.5752577, -20.3116266] }
    },
    {
      "properties": {
        "name": "Port Kembla",
        "city": "Port Kembla",
        "province": "New South Wales",
        "country": "Australia",
        "alias": [],
        "regions": [],
        "coordinates": [150.900495, -34.4800735],
        "timezone": "Australia/Sydney",
        "unlocs": ["AUPKL"],
        "code": "60252",
        "port_code": "AUPKL"
      },
      "geometry": { "type": "Point", "coordinates": [150.900495, -34.4800735] }
    },
    {
      "properties": {
        "name": "Sydney",
        "coordinates": [151.2, -33.85],
        "city": "Sydney",
        "province": "New South Wales",
        "country": "Australia",
        "alias": [],
        "regions": [],
        "timezone": "Australia/Sydney",
        "unlocs": ["AUSYD"],
        "code": "60267",
        "port_code": "AUSYD"
      },
      "geometry": { "type": "Point", "coordinates": [151.2, -33.85] }
    },
    {
      "properties": {
        "name": "Townsville",
        "city": "Townsville",
        "province": "Queensland",
        "country": "Australia",
        "alias": [],
        "regions": [],
        "coordinates": [146.8178707, -19.2576268],
        "timezone": "Australia/Brisbane",
        "unlocs": ["AUTSV"],
        "code": "60273",
        "port_code": "AUTSV"
      },
      "geometry": { "type": "Point", "coordinates": [146.8178707, -19.2576268] }
    },
    {
      "properties": {
        "name": "Weipa",
        "city": "Weipa",
        "province": "Queensland",
        "country": "Australia",
        "alias": [],
        "regions": [],
        "coordinates": [141.8384064, -12.6591475],
        "timezone": "Australia/Brisbane",
        "unlocs": ["AUWEI"],
        "code": "60275",
        "port_code": "AUWEI"
      },
      "geometry": { "type": "Point", "coordinates": [141.8384064, -12.6591475] }
    },
    {
      "properties": {
        "name": "Aruba",
        "coordinates": [-69.97, 12.5],
        "city": "Aruba",
        "country": "Aruba",
        "alias": [],
        "regions": [],
        "timezone": "America/Aruba",
        "unlocs": ["AWAUA"],
        "code": "27703",
        "port_code": "AWAUA"
      },
      "geometry": { "type": "Point", "coordinates": [-69.97, 12.5] }
    },
    {
      "properties": {
        "name": "Oranjestad",
        "city": "Oranjestad",
        "country": "Aruba",
        "alias": [],
        "regions": [],
        "coordinates": [-70.0086306, 12.5092044],
        "timezone": "America/Aruba",
        "unlocs": ["AWORJ"],
        "code": "27701",
        "port_code": "AWORJ"
      },
      "geometry": { "type": "Point", "coordinates": [-70.0086306, 12.5092044] }
    },
    {
      "properties": {
        "name": "Baku",
        "city": "Baku",
        "country": "Azerbaijan",
        "alias": [],
        "regions": [],
        "coordinates": [49.8670924, 40.40926169999999],
        "timezone": "Asia/Baku",
        "unlocs": ["AZBAK"],
        "port_code": "AZBAK"
      },
      "geometry": {
        "type": "Point",
        "coordinates": [49.8670924, 40.40926169999999]
      }
    },
    {
      "properties": {
        "name": "Bridgetown",
        "city": "Bridgetown",
        "country": "Barbados",
        "alias": [],
        "regions": [],
        "coordinates": [-59.59880889999999, 13.1132219],
        "province": "Saint Michael",
        "timezone": "America/Barbados",
        "unlocs": ["BBBGI"],
        "code": "27201",
        "port_code": "BBBGI"
      },
      "geometry": {
        "type": "Point",
        "coordinates": [-59.59880889999999, 13.1132219]
      }
    },
    {
      "properties": {
        "name": "Chittagong",
        "city": "Chittagong",
        "country": "Bangladesh",
        "alias": [],
        "regions": [],
        "coordinates": [91.8123324, 22.3475365],
        "province": "Chittagong Division",
        "timezone": "Asia/Dhaka",
        "unlocs": ["BDCGP"],
        "code": "53827",
        "port_code": "BDCGP"
      },
      "geometry": { "type": "Point", "coordinates": [91.8123324, 22.3475365] }
    },
    {
      "properties": {
        "name": "Chalna",
        "city": "Chalna",
        "country": "Bangladesh",
        "alias": [],
        "regions": [],
        "coordinates": [89.5139693, 22.6036965],
        "province": "Khulna Division",
        "timezone": "Asia/Dhaka",
        "unlocs": ["BDCHL"],
        "code": "53820",
        "port_code": "BDCHL"
      },
      "geometry": { "type": "Point", "coordinates": [89.5139693, 22.6036965] }
    },
    {
      "properties": {
        "name": "Dhaka",
        "city": "Dhaka",
        "country": "Bangladesh",
        "alias": [],
        "regions": [],
        "coordinates": [90.4125181, 23.810332],
        "province": "Dhaka Division",
        "timezone": "Asia/Dhaka",
        "unlocs": ["BDDAC"],
        "code": "53800",
        "port_code": "BDDAC"
      },
      "geometry": { "type": "Point", "coordinates": [90.4125181, 23.810332] }
    },
    {
      "properties": {
        "name": "Mongla",
        "city": "Mongla",
        "country": "Bangladesh",
        "alias": [],
        "regions": [],
        "coordinates": [89.6016171, 22.4942196],
        "province": "Khulna Division",
        "timezone": "Asia/Dhaka",
        "unlocs": ["BDMGL"],
        "code": "53800",
        "port_code": "BDMGL"
      },
      "geometry": { "type": "Point", "coordinates": [89.6016171, 22.4942196] }
    },
    {
      "properties": {
        "name": "Antwerpen",
        "coordinates": [4.42, 51.22],
        "city": "Antwerpen",
        "province": "Antwerpen",
        "country": "Belgium",
        "alias": [],
        "regions": [],
        "timezone": "Europe/Brussels",
        "unlocs": ["BEANR"],
        "code": "42305",
        "port_code": "BEANR"
      },
      "geometry": { "type": "Point", "coordinates": [4.42, 51.22] }
    },
    {
      "properties": {
        "timezone": "Europe/Brussels",
        "coordinates": [3.4072881, 50.7481174],
        "name": "Bossuit",
        "city": "Bossuit",
        "province": "West-Vlaanderen",
        "country": "Belgium",
        "alias": [],
        "regions": [],
        "unlocs": ["BEBSU"],
        "code": "42300",
        "port_code": "BEBSU"
      },
      "geometry": { "type": "Point", "coordinates": [3.4072881, 50.7481174] }
    },
    {
      "properties": {
        "timezone": "Europe/Brussels",
        "coordinates": [4.264974899999999, 51.31059759999999],
        "name": "Doel",
        "city": "Doel",
        "province": "Oost-Vlaanderen",
        "country": "Belgium",
        "alias": [],
        "regions": [],
        "unlocs": ["BEDEL"],
        "code": "42300",
        "port_code": "BEDEL"
      },
      "geometry": {
        "type": "Point",
        "coordinates": [4.264974899999999, 51.31059759999999]
      }
    },
    {
      "properties": {
        "name": "Gent (Ghent)",
        "coordinates": [3.72, 51.05],
        "city": "Gent (Ghent)",
        "province": "Oost-Vlaanderen",
        "country": "Belgium",
        "alias": [],
        "regions": [],
        "timezone": "Europe/Brussels",
        "unlocs": ["BEGNE"],
        "code": "42331",
        "port_code": "BEGNE"
      },
      "geometry": { "type": "Point", "coordinates": [3.72, 51.05] }
    },
    {
      "properties": {
        "name": "Oostende (Ostend)",
        "coordinates": [2.92, 51.2],
        "city": "Oostende (Ostend)",
        "province": "West-Vlaanderen",
        "country": "Belgium",
        "alias": [],
        "regions": [],
        "timezone": "Europe/Brussels",
        "unlocs": ["BEOST"],
        "code": "42351",
        "port_code": "BEOST"
      },
      "geometry": { "type": "Point", "coordinates": [2.92, 51.2] }
    },
    {
      "properties": {
        "name": "Zeebrugge",
        "coordinates": [3.2, 51.33],
        "city": "Zeebrugge",
        "province": "West-Vlaanderen",
        "country": "Belgium",
        "alias": [],
        "regions": [],
        "timezone": "Europe/Brussels",
        "unlocs": ["BEZEE"],
        "code": "42381",
        "port_code": "BEZEE"
      },
      "geometry": { "type": "Point", "coordinates": [3.2, 51.33] }
    },
    {
      "properties": {
        "name": "Ouagadougou",
        "city": "Ouagadougou",
        "country": "Burkina Faso",
        "alias": [],
        "regions": [],
        "coordinates": [-1.5196603, 12.3714277],
        "province": "Centre",
        "timezone": "Africa/Ouagadougou",
        "unlocs": ["BFOUA"],
        "port_code": "BFOUA"
      },
      "geometry": { "type": "Point", "coordinates": [-1.5196603, 12.3714277] }
    },
    {
      "properties": {
        "name": "Burgas",
        "city": "Burgas",
        "country": "Bulgaria",
        "alias": [],
        "regions": [],
        "coordinates": [27.4626361, 42.50479259999999],
        "province": "Burgas",
        "timezone": "Europe/Sofia",
        "unlocs": ["BGBOJ"],
        "code": "48702",
        "port_code": "BGBOJ"
      },
      "geometry": {
        "type": "Point",
        "coordinates": [27.4626361, 42.50479259999999]
      }
    },
    {
      "properties": {
        "name": "Varna",
        "city": "Varna",
        "country": "Bulgaria",
        "alias": [],
        "regions": [],
        "coordinates": [27.9147333, 43.2140504],
        "province": "Varna",
        "timezone": "Europe/Sofia",
        "unlocs": ["BGVAR"],
        "code": "48707",
        "port_code": "BGVAR"
      },
      "geometry": { "type": "Point", "coordinates": [27.9147333, 43.2140504] }
    },
    {
      "properties": {
        "name": "Bahrain",
        "coordinates": [50.63, 26.27],
        "city": "Bahrain",
        "province": "Al Muharraq",
        "country": "Bahrain",
        "alias": [],
        "regions": [],
        "timezone": "Asia/Bahrain",
        "unlocs": ["BHBAH"],
        "code": "52500",
        "port_code": "BHBAH"
      },
      "geometry": { "type": "Point", "coordinates": [50.63, 26.27] }
    },
    {
      "properties": {
        "name": "Khalifa Bin Salman Port",
        "coordinates": [50.62, 26.2],
        "city": "Khalifa Bin Salman",
        "province": "Al Muharraq",
        "country": "Bahrain",
        "alias": [],
        "regions": [],
        "timezone": "Asia/Bahrain",
        "unlocs": ["BHKBS"],
        "code": "52500",
        "port_code": "BHKBS"
      },
      "geometry": { "type": "Point", "coordinates": [50.62, 26.2] }
    },
    {
      "properties": {
        "name": "Manama",
        "city": "Manama",
        "country": "Bahrain",
        "alias": [],
        "regions": [],
        "coordinates": [50.5860497, 26.2285161],
        "timezone": "Asia/Bahrain",
        "unlocs": ["BHMAN"],
        "code": "52502",
        "port_code": "BHMAN"
      },
      "geometry": { "type": "Point", "coordinates": [50.5860497, 26.2285161] }
    },
    {
      "properties": {
        "name": "Sitrah",
        "coordinates": [50.62, 26.13],
        "city": "Sitrah",
        "province": "Al Wust\u00e1",
        "country": "Bahrain",
        "alias": [],
        "regions": [],
        "timezone": "Asia/Bahrain",
        "unlocs": ["BHSIT"],
        "code": "52500",
        "port_code": "BHSIT"
      },
      "geometry": { "type": "Point", "coordinates": [50.62, 26.13] }
    },
    {
      "properties": {
        "name": "Cotonou",
        "city": "Cotonou",
        "country": "Benin",
        "alias": [],
        "regions": [],
        "coordinates": [2.3912362, 6.3702928],
        "province": "Littoral",
        "timezone": "Africa/Porto-Novo",
        "unlocs": ["BJCOO"],
        "code": "76101",
        "port_code": "BJCOO"
      },
      "geometry": { "type": "Point", "coordinates": [2.3912362, 6.3702928] }
    },
    {
      "properties": {
        "name": "Hamilton",
        "city": "Hamilton",
        "country": "Bermuda",
        "alias": [],
        "regions": [],
        "coordinates": [-64.781375, 32.294816],
        "province": "Hamilton",
        "timezone": "Atlantic/Bermuda",
        "unlocs": ["BMBDA"],
        "code": "23201",
        "port_code": "BMBDA"
      },
      "geometry": { "type": "Point", "coordinates": [-64.781375, 32.294816] }
    },
    {
      "properties": {
        "timezone": "Europe/London",
        "coordinates": [-1.4043509, 50.90970040000001],
        "name": "Southampton",
        "city": "Southampton",
        "province": "Zou",
        "country": "Bermuda",
        "alias": [],
        "regions": [],
        "unlocs": ["BMSOU"],
        "code": "23299",
        "port_code": "BMSOU"
      },
      "geometry": {
        "type": "Point",
        "coordinates": [-1.4043509, 50.90970040000001]
      }
    },
    {
      "properties": {
        "name": "Bandar Seri Begawan",
        "coordinates": [114.93, 4.88],
        "city": "Bandar Seri Begawan",
        "country": "Brunei Darussalam",
        "alias": [],
        "regions": [],
        "province": "Brunei-Muara",
        "timezone": "Asia/Brunei",
        "unlocs": ["BNBWN"],
        "code": "56100",
        "port_code": "BNBWN"
      },
      "geometry": { "type": "Point", "coordinates": [114.93, 4.88] }
    },
    {
      "properties": {
        "name": "Kuala Belait",
        "city": "Kuala Belait",
        "country": "Brunei Darussalam",
        "alias": [],
        "regions": [],
        "coordinates": [114.2212174, 4.5831986],
        "province": "Belait",
        "timezone": "Asia/Brunei",
        "unlocs": ["BNKUB"],
        "code": "56100",
        "port_code": "BNKUB"
      },
      "geometry": { "type": "Point", "coordinates": [114.2212174, 4.5831986] }
    },
    {
      "properties": {
        "name": "Muara",
        "city": "Muara",
        "country": "Brunei Darussalam",
        "alias": [],
        "regions": [],
        "coordinates": [115.0732883, 5.0333206],
        "province": "Brunei-Muara",
        "timezone": "Asia/Brunei",
        "unlocs": ["BNMUA"],
        "code": "56151",
        "port_code": "BNMUA"
      },
      "geometry": { "type": "Point", "coordinates": [115.0732883, 5.0333206] }
    },
    {
      "properties": {
        "timezone": "America/Campo_Grande",
        "coordinates": [-57.96666699999999, -20.033333],
        "name": "Puerto Busch",
        "city": "Puerto Busch",
        "province": "Santa Cruz",
        "country": "Bolivia, Plurinational State of",
        "alias": [],
        "regions": [],
        "unlocs": ["BOPBU"],
        "code": "23299",
        "port_code": "BOPBU"
      },
      "geometry": {
        "type": "Point",
        "coordinates": [-57.96666699999999, -20.033333]
      }
    },
    {
      "properties": {
        "name": "Santa Cruz",
        "coordinates": [-63.18, -17.78],
        "city": "Santa Cruz",
        "province": "La Paz",
        "country": "Bolivia, Plurinational State of",
        "alias": [],
        "regions": [],
        "timezone": "America/La_Paz",
        "unlocs": ["BOSRZ"],
        "code": "23299",
        "port_code": "BOSRZ"
      },
      "geometry": { "type": "Point", "coordinates": [-63.18, -17.78] }
    },
    {
      "properties": {
        "name": "Aratu",
        "city": "Aratu",
        "province": "Bahia",
        "country": "Brazil",
        "alias": [],
        "regions": [],
        "coordinates": [-38.4560755, -12.7855854],
        "timezone": "America/Fortaleza",
        "unlocs": ["BRARB"],
        "code": "35115",
        "port_code": "BRARB"
      },
      "geometry": { "type": "Point", "coordinates": [-38.4560755, -12.7855854] }
    },
    {
      "properties": {
        "name": "Areia Branca",
        "coordinates": [-37.17, -4.98],
        "city": "Areia Branca",
        "province": "Rio Grande do Norte",
        "country": "Brazil",
        "alias": [],
        "regions": [],
        "timezone": "America/Fortaleza",
        "unlocs": ["BRARE"],
        "code": "35198",
        "port_code": "BRARE"
      },
      "geometry": { "type": "Point", "coordinates": [-37.17, -4.98] }
    },
    {
      "properties": {
        "name": "Belem",
        "coordinates": [-48.5, -1.45],
        "city": "Belem",
        "province": "Par\u00e1",
        "country": "Brazil",
        "alias": [],
        "regions": [],
        "timezone": "America/Boa_Vista",
        "unlocs": ["BRBEL"],
        "code": "35121",
        "port_code": "BRBEL"
      },
      "geometry": { "type": "Point", "coordinates": [-48.5, -1.45] }
    },
    {
      "properties": {
        "name": "Cabedelo",
        "city": "Cabedelo",
        "province": "Para\u00edba",
        "country": "Brazil",
        "alias": [],
        "regions": [],
        "coordinates": [-34.8287221, -6.987721499999999],
        "timezone": "America/Fortaleza",
        "unlocs": ["BRCDO"],
        "code": "35127",
        "port_code": "BRCDO"
      },
      "geometry": {
        "type": "Point",
        "coordinates": [-34.8287221, -6.987721499999999]
      }
    },
    {
      "properties": {
        "name": "Forno",
        "city": "Forno",
        "province": "Rio de Janeiro",
        "country": "Brazil",
        "alias": [],
        "regions": [],
        "coordinates": [-41.8807698, -22.7583647],
        "timezone": "America/Sao_Paulo",
        "unlocs": ["BRFNO"],
        "code": "35199",
        "port_code": "BRFNO"
      },
      "geometry": { "type": "Point", "coordinates": [-41.8807698, -22.7583647] }
    },
    {
      "properties": {
        "name": "Fortaleza",
        "city": "Fortaleza",
        "province": "Cear\u00e1",
        "country": "Brazil",
        "alias": [],
        "regions": [],
        "coordinates": [-38.5266704, -3.7318616],
        "timezone": "America/Fortaleza",
        "unlocs": ["BRFOR"],
        "code": "35133",
        "port_code": "BRFOR"
      },
      "geometry": { "type": "Point", "coordinates": [-38.5266704, -3.7318616] }
    },
    {
      "properties": {
        "name": "Imbituba",
        "city": "Imbituba",
        "province": "Santa Catarina",
        "country": "Brazil",
        "alias": [],
        "regions": [],
        "coordinates": [-48.6691286, -28.227627],
        "timezone": "America/Sao_Paulo",
        "unlocs": ["BRIBB"],
        "code": "35178",
        "port_code": "BRIBB"
      },
      "geometry": { "type": "Point", "coordinates": [-48.6691286, -28.227627] }
    },
    {
      "properties": {
        "name": "Itaguai",
        "coordinates": [-43.77, -22.87],
        "city": "Itagua\u00ed",
        "province": "Rio de Janeiro",
        "country": "Brazil",
        "alias": [],
        "regions": [],
        "timezone": "America/Sao_Paulo",
        "unlocs": ["BRIGI"],
        "code": "35185",
        "port_code": "BRIGI"
      },
      "geometry": { "type": "Point", "coordinates": [-43.77, -22.87] }
    },
    {
      "properties": {
        "name": "Itapoa",
        "coordinates": [-48.6, -26.12],
        "city": "Itapo\u00e1",
        "province": "Santa Catarina",
        "country": "Brazil",
        "alias": [],
        "regions": [],
        "timezone": "America/Sao_Paulo",
        "unlocs": ["BRIOA"],
        "code": "35199",
        "port_code": "BRIOA"
      },
      "geometry": { "type": "Point", "coordinates": [-48.6, -26.12] }
    },
    {
      "properties": {
        "name": "Ilheus",
        "city": "Ilheus",
        "province": "Bahia",
        "country": "Brazil",
        "alias": [],
        "regions": [],
        "coordinates": [-39.0463797, -14.7935051],
        "timezone": "America/Fortaleza",
        "unlocs": ["BRIOS"],
        "code": "35137",
        "port_code": "BRIOS"
      },
      "geometry": { "type": "Point", "coordinates": [-39.0463797, -14.7935051] }
    },
    {
      "properties": {
        "timezone": "America/Sao_Paulo",
        "coordinates": [-43.8030567, -20.2530617],
        "name": "Itabirito",
        "city": "Itabirito",
        "province": "Minas Gerais",
        "country": "Brazil",
        "alias": [],
        "regions": [],
        "unlocs": ["BRIRO"],
        "code": "35199",
        "port_code": "BRIRO"
      },
      "geometry": { "type": "Point", "coordinates": [-43.8030567, -20.2530617] }
    },
    {
      "properties": {
        "name": "Itajai",
        "city": "Itajai",
        "province": "Santa Catarina",
        "country": "Brazil",
        "alias": [],
        "regions": [],
        "coordinates": [-48.6709514, -26.9105964],
        "timezone": "America/Sao_Paulo",
        "unlocs": ["BRITJ"],
        "code": "35138",
        "port_code": "BRITJ"
      },
      "geometry": { "type": "Point", "coordinates": [-48.6709514, -26.9105964] }
    },
    {
      "properties": {
        "name": "Itaqui",
        "city": "Itaqui",
        "province": "Rio Grande do Sul",
        "country": "Brazil",
        "alias": [],
        "regions": [],
        "coordinates": [-56.5481122, -29.1294007],
        "timezone": "America/Sao_Paulo",
        "unlocs": ["BRITQ"],
        "code": "35135",
        "port_code": "BRITQ"
      },
      "geometry": { "type": "Point", "coordinates": [-56.5481122, -29.1294007] }
    },
    {
      "properties": {
        "timezone": "America/Sao_Paulo",
        "coordinates": [-40.8310577, -21.0100062],
        "name": "Itapemirim",
        "city": "Itapemirim",
        "province": "Esp\u00edrito Santo",
        "country": "Brazil",
        "alias": [],
        "regions": [],
        "unlocs": ["BRITZ"],
        "code": "35199",
        "port_code": "BRITZ"
      },
      "geometry": { "type": "Point", "coordinates": [-40.8310577, -21.0100062] }
    },
    {
      "properties": {
        "name": "Manaus",
        "city": "Manaus",
        "province": "Amazonas",
        "country": "Brazil",
        "alias": [],
        "regions": [],
        "coordinates": [-60.0217314, -3.1190275],
        "timezone": "Europe/Stockholm",
        "unlocs": ["BRMAO"],
        "code": "35144",
        "port_code": "BRMAO"
      },
      "geometry": { "type": "Point", "coordinates": [-60.0217314, -3.1190275] }
    },
    {
      "properties": {
        "name": "Maceio",
        "coordinates": [-35.72, -9.67],
        "city": "Macei\u00f3",
        "province": "Alagoas",
        "country": "Brazil",
        "alias": [],
        "regions": [],
        "timezone": "America/Fortaleza",
        "unlocs": ["BRMCZ"],
        "code": "35141",
        "port_code": "BRMCZ"
      },
      "geometry": { "type": "Point", "coordinates": [-35.72, -9.67] }
    },
    {
      "properties": {
        "name": "Natal",
        "city": "Natal",
        "province": "Rio Grande do Norte",
        "country": "Brazil",
        "alias": [],
        "regions": [],
        "coordinates": [-35.200916, -5.7792569],
        "timezone": "America/Fortaleza",
        "unlocs": ["BRNAT"],
        "code": "35157",
        "port_code": "BRNAT"
      },
      "geometry": { "type": "Point", "coordinates": [-35.200916, -5.7792569] }
    },
    {
      "properties": {
        "name": "Navegantes",
        "coordinates": [-48.65, -26.9],
        "city": "Navegantes",
        "province": "Santa Catarina",
        "country": "Brazil",
        "alias": [],
        "regions": [],
        "timezone": "America/Sao_Paulo",
        "unlocs": ["BRNVT"],
        "code": "35136",
        "port_code": "BRNVT"
      },
      "geometry": { "type": "Point", "coordinates": [-48.65, -26.9] }
    },
    {
      "properties": {
        "name": "Portocel",
        "city": "Portocel",
        "province": "Esp\u00edrito Santo",
        "country": "Brazil",
        "alias": [],
        "regions": [],
        "coordinates": [-40.3088626, -19.1834229],
        "timezone": "America/Sao_Paulo",
        "unlocs": ["BRPCL"],
        "code": "35199",
        "port_code": "BRPCL"
      },
      "geometry": { "type": "Point", "coordinates": [-40.3088626, -19.1834229] }
    },
    {
      "properties": {
        "name": "Pecem",
        "coordinates": [-38.87, -3.52],
        "city": "Pec\u00e9m",
        "province": "Cear\u00e1",
        "country": "Brazil",
        "alias": [],
        "regions": [],
        "timezone": "America/Fortaleza",
        "unlocs": ["BRPEC"],
        "code": "35120",
        "port_code": "BRPEC"
      },
      "geometry": { "type": "Point", "coordinates": [-38.87, -3.52] }
    },
    {
      "properties": {
        "name": "Paranagua",
        "coordinates": [-48.5, -25.52],
        "city": "Paranagu\u00e1",
        "province": "Paran\u00e1",
        "country": "Brazil",
        "alias": [],
        "regions": [],
        "timezone": "America/Sao_Paulo",
        "unlocs": ["BRPNG"],
        "code": "35159",
        "port_code": "BRPNG"
      },
      "geometry": { "type": "Point", "coordinates": [-48.5, -25.52] }
    },
    {
      "properties": {
        "timezone": "America/Fortaleza",
        "coordinates": [-47.8759329, -12.6162809],
        "name": "Paran\u00e3",
        "city": "Paran\u00e3",
        "province": "Tocantins",
        "country": "Brazil",
        "alias": [],
        "regions": [],
        "unlocs": ["BRPNN"],
        "code": "35199",
        "port_code": "BRPNN"
      },
      "geometry": { "type": "Point", "coordinates": [-47.8759329, -12.6162809] }
    },
    {
      "properties": {
        "name": "Porto Alegre",
        "city": "P\u00f4rto Alegre",
        "province": "Rio Grande do Sul",
        "country": "Brazil",
        "alias": [],
        "regions": [],
        "coordinates": [-51.2176584, -30.0346471],
        "timezone": "America/Sao_Paulo",
        "unlocs": ["BRPOA"],
        "code": "35167",
        "port_code": "BRPOA"
      },
      "geometry": { "type": "Point", "coordinates": [-51.2176584, -30.0346471] }
    },
    {
      "properties": {
        "name": "Recife",
        "city": "Recife",
        "province": "Pernambuco",
        "country": "Brazil",
        "alias": [],
        "regions": [],
        "coordinates": [-34.8828969, -8.0578381],
        "timezone": "America/Fortaleza",
        "unlocs": ["BRREC"],
        "code": "35169",
        "port_code": "BRREC"
      },
      "geometry": { "type": "Point", "coordinates": [-34.8828969, -8.0578381] }
    },
    {
      "properties": {
        "name": "Rio Grande",
        "city": "Rio Grande",
        "province": "Rio Grande do Sul",
        "country": "Brazil",
        "alias": [],
        "regions": [],
        "coordinates": [-52.1075802, -32.0353776],
        "timezone": "America/Sao_Paulo",
        "unlocs": ["BRRIG"],
        "code": "35173",
        "port_code": "BRRIG"
      },
      "geometry": { "type": "Point", "coordinates": [-52.1075802, -32.0353776] }
    },
    {
      "properties": {
        "name": "Rio de Janeiro",
        "city": "Rio de Janeiro",
        "province": "Rio de Janeiro",
        "country": "Brazil",
        "alias": [],
        "regions": [],
        "coordinates": [-43.1728965, -22.9068467],
        "timezone": "America/Sao_Paulo",
        "unlocs": ["BRRIO"],
        "code": "35171",
        "port_code": "BRRIO"
      },
      "geometry": { "type": "Point", "coordinates": [-43.1728965, -22.9068467] }
    },
    {
      "properties": {
        "timezone": "America/Sao_Paulo",
        "coordinates": [-49.9836057, -22.8898683],
        "name": "Salto Grande",
        "city": "Salto Grande",
        "province": "S\u00e3o Paulo",
        "country": "Brazil",
        "alias": [],
        "regions": [],
        "unlocs": ["BRSAL"],
        "code": "35199",
        "port_code": "BRSAL"
      },
      "geometry": { "type": "Point", "coordinates": [-49.9836057, -22.8898683] }
    },
    {
      "properties": {
        "name": "Sao Francisco do Sul",
        "city": "S\u00e3o Francisco do Sul",
        "province": "Santa Catarina",
        "country": "Brazil",
        "alias": [],
        "regions": [],
        "coordinates": [-48.6348454, -26.2584141],
        "timezone": "America/Sao_Paulo",
        "unlocs": ["BRSFS"],
        "code": "35179",
        "port_code": "BRSFS"
      },
      "geometry": { "type": "Point", "coordinates": [-48.6348454, -26.2584141] }
    },
    {
      "properties": {
        "name": "Porto de Itaguai",
        "coordinates": [-43.82, -22.92],
        "city": "Porto de Itagua\u00ed",
        "province": "Rio de Janeiro",
        "country": "Brazil",
        "alias": [],
        "regions": [],
        "timezone": "America/Sao_Paulo",
        "unlocs": ["BRSPB"],
        "code": "35185",
        "port_code": "BRSPB"
      },
      "geometry": { "type": "Point", "coordinates": [-43.82, -22.92] }
    },
    {
      "properties": {
        "name": "Salvador",
        "city": "Salvador",
        "province": "Bahia",
        "country": "Brazil",
        "alias": [],
        "regions": [],
        "coordinates": [-38.502304, -12.9730401],
        "timezone": "America/Fortaleza",
        "unlocs": ["BRSSA"],
        "code": "35181",
        "port_code": "BRSSA"
      },
      "geometry": { "type": "Point", "coordinates": [-38.502304, -12.9730401] }
    },
    {
      "properties": {
        "name": "Sao Sebastiao",
        "city": "S\u00e3o Sebasti\u00e3o",
        "province": "S\u00e3o Paulo",
        "country": "Brazil",
        "alias": [],
        "regions": [],
        "coordinates": [-45.4016534, -23.8063468],
        "timezone": "America/Sao_Paulo",
        "unlocs": ["BRSSO"],
        "code": "35175",
        "port_code": "BRSSO"
      },
      "geometry": { "type": "Point", "coordinates": [-45.4016534, -23.8063468] }
    },
    {
      "properties": {
        "name": "Santos",
        "coordinates": [-46.33, -23.95],
        "city": "Santos",
        "province": "S\u00e3o Paulo",
        "country": "Brazil",
        "alias": [],
        "regions": [],
        "timezone": "America/Sao_Paulo",
        "unlocs": ["BRSSZ"],
        "code": "35177",
        "port_code": "BRSSZ"
      },
      "geometry": { "type": "Point", "coordinates": [-46.33, -23.95] }
    },
    {
      "properties": {
        "name": "Santarem",
        "city": "Santarem",
        "province": "Par\u00e1",
        "country": "Brazil",
        "alias": [],
        "regions": [],
        "coordinates": [-54.7009228, -2.4506291],
        "timezone": "America/Boa_Vista",
        "unlocs": ["BRSTM"],
        "code": "35198",
        "port_code": "BRSTM"
      },
      "geometry": { "type": "Point", "coordinates": [-54.7009228, -2.4506291] }
    },
    {
      "properties": {
        "name": "Suape",
        "city": "Suape",
        "province": "Pernambuco",
        "country": "Brazil",
        "alias": [],
        "regions": [],
        "coordinates": [-34.9575528, -8.3536618],
        "timezone": "America/Fortaleza",
        "unlocs": ["BRSUA"],
        "code": "35170",
        "port_code": "BRSUA"
      },
      "geometry": { "type": "Point", "coordinates": [-34.9575528, -8.3536618] }
    },
    {
      "properties": {
        "name": "Vitoria da Conquista",
        "coordinates": [-40.85, -14.85],
        "city": "Vit\u00f3ria da Conquista",
        "province": "Bahia",
        "country": "Brazil",
        "alias": [],
        "regions": [],
        "timezone": "America/Fortaleza",
        "unlocs": ["BRVDC"],
        "code": "35195",
        "port_code": "BRVDC"
      },
      "geometry": { "type": "Point", "coordinates": [-40.85, -14.85] }
    },
    {
      "properties": {
        "name": "Vila do Conde",
        "coordinates": [-34.9, -7.27],
        "city": "Vila do Conde",
        "province": "Para\u00edba",
        "country": "Brazil",
        "alias": [],
        "regions": [],
        "timezone": "America/Fortaleza",
        "unlocs": ["BRVIC"],
        "code": "35121",
        "port_code": "BRVIC"
      },
      "geometry": { "type": "Point", "coordinates": [-34.9, -7.27] }
    },
    {
      "properties": {
        "name": "Vitoria",
        "city": "Vitoria",
        "province": "Esp\u00edrito Santo",
        "country": "Brazil",
        "alias": [],
        "regions": [],
        "coordinates": [-40.2957768, -20.2976178],
        "timezone": "America/Sao_Paulo",
        "unlocs": ["BRVIX"],
        "code": "35195",
        "port_code": "BRVIX"
      },
      "geometry": { "type": "Point", "coordinates": [-40.2957768, -20.2976178] }
    },
    {
      "properties": {
        "name": "Vila do Conde",
        "coordinates": [-48.75, -1.53],
        "city": "Vila do Conde",
        "province": "Par\u00e1",
        "country": "Brazil",
        "alias": [],
        "regions": [],
        "unlocs": ["BRVLC"],
        "code": "35121",
        "port_code": "BRVLC"
      },
      "geometry": { "type": "Point", "coordinates": [-48.75, -1.53] }
    },
    {
      "properties": {
        "name": "Freeport, Grand Bahama",
        "city": "Freeport, Grand Bahama",
        "country": "Bahamas",
        "alias": [],
        "regions": [],
        "coordinates": [-78.64554749999999, 26.5416093],
        "province": "Freeport",
        "timezone": "America/Nassau",
        "unlocs": ["BSFPO"],
        "code": "23645",
        "port_code": "BSFPO"
      },
      "geometry": {
        "type": "Point",
        "coordinates": [-78.64554749999999, 26.5416093]
      }
    },
    {
      "properties": {
        "name": "Nassau",
        "coordinates": [-77.35, 25.08],
        "city": "Nassau",
        "country": "Bahamas",
        "alias": [],
        "regions": [],
        "province": "New Providence",
        "timezone": "America/Nassau",
        "unlocs": ["BSNAS"],
        "code": "23661",
        "port_code": "BSNAS"
      },
      "geometry": { "type": "Point", "coordinates": [-77.35, 25.08] }
    },
    {
      "properties": {
        "name": "Minsk",
        "city": "Minsk",
        "country": "Belarus",
        "alias": [],
        "regions": [],
        "coordinates": [27.5615244, 53.90453979999999],
        "timezone": "Europe/Minsk",
        "unlocs": ["BYMSQ"],
        "port_code": "BYMSQ"
      },
      "geometry": {
        "type": "Point",
        "coordinates": [27.5615244, 53.90453979999999]
      }
    },
    {
      "properties": {
        "name": "Belize City",
        "city": "Belize City",
        "country": "Belize",
        "alias": [],
        "regions": [],
        "coordinates": [-88.1962133, 17.5045661],
        "province": "Belize",
        "timezone": "America/Belize",
        "unlocs": ["BZBZE"],
        "code": "20801",
        "port_code": "BZBZE"
      },
      "geometry": { "type": "Point", "coordinates": [-88.1962133, 17.5045661] }
    },
    {
      "properties": {
        "name": "Bathurst",
        "city": "Bathurst",
        "province": "New Brunswick",
        "country": "Canada",
        "alias": [],
        "regions": [],
        "coordinates": [-65.6513358, 47.6183507],
        "timezone": "America/Halifax",
        "unlocs": ["CABAT"],
        "code": "13458",
        "port_code": "CABAT"
      },
      "geometry": { "type": "Point", "coordinates": [-65.6513358, 47.6183507] }
    },
    {
      "properties": {
        "name": "Brockville",
        "city": "Brockville",
        "province": "Ontario",
        "country": "Canada",
        "alias": [],
        "regions": [],
        "coordinates": [-75.68428580000001, 44.5895244],
        "timezone": "America/Toronto",
        "unlocs": ["CABCK"],
        "code": "1694",
        "port_code": "CABCK"
      },
      "geometry": {
        "type": "Point",
        "coordinates": [-75.68428580000001, 44.5895244]
      }
    },
    {
      "properties": {
        "name": "Baie d'Urfe",
        "coordinates": [-73.92, 45.4],
        "city": "Baie d'Urf\u00e9",
        "province": "Quebec",
        "country": "Canada",
        "alias": [],
        "regions": [],
        "timezone": "America/Toronto",
        "unlocs": ["CABDU"],
        "code": "13400",
        "port_code": "CABDU"
      },
      "geometry": { "type": "Point", "coordinates": [-73.92, 45.4] }
    },
    {
      "properties": {
        "name": "Becancour",
        "coordinates": [-72.43, 46.33],
        "city": "B\u00e9cancour",
        "province": "Quebec",
        "country": "Canada",
        "alias": [],
        "regions": [],
        "timezone": "America/Toronto",
        "unlocs": ["CABEC"],
        "code": "13441",
        "port_code": "CABEC"
      },
      "geometry": { "type": "Point", "coordinates": [-72.43, 46.33] }
    },
    {
      "properties": {
        "name": "Baie-Johan-Beetz",
        "coordinates": [-62.83, 50.3],
        "city": "Baie-Johan-Beetz",
        "province": "Quebec",
        "country": "Canada",
        "alias": [],
        "regions": [],
        "timezone": "America/Toronto",
        "unlocs": ["CABJO"],
        "code": "13400",
        "port_code": "CABJO"
      },
      "geometry": { "type": "Point", "coordinates": [-62.83, 50.3] }
    },
    {
      "properties": {
        "name": "Burlington",
        "city": "Burlington",
        "province": "Ontario",
        "country": "Canada",
        "alias": [],
        "regions": [],
        "coordinates": [-79.7990319, 43.3255196],
        "timezone": "America/Toronto",
        "unlocs": ["CABRL"],
        "code": "9000",
        "port_code": "CABRL"
      },
      "geometry": { "type": "Point", "coordinates": [-79.7990319, 43.3255196] }
    },
    {
      "properties": {
        "name": "Calgary",
        "coordinates": [-114.07, 51.03],
        "city": "Calgary",
        "province": "Alberta",
        "country": "Canada",
        "alias": [],
        "regions": [],
        "timezone": "America/Edmonton",
        "unlocs": ["CACAL"],
        "code": "12200",
        "port_code": "CACAL"
      },
      "geometry": { "type": "Point", "coordinates": [-114.07, 51.03] }
    },
    {
      "properties": {
        "name": "Corner Brook",
        "coordinates": [-57.93, 48.95],
        "city": "Corner Brook",
        "province": "Newfoundland and Labrador",
        "country": "Canada",
        "alias": [],
        "regions": [],
        "timezone": "America/St_Johns",
        "unlocs": ["CACBK"],
        "code": "15231",
        "port_code": "CACBK"
      },
      "geometry": { "type": "Point", "coordinates": [-57.93, 48.95] }
    },
    {
      "properties": {
        "name": "Cowichan Bay",
        "city": "Cowichan Bay",
        "province": "British Columbia",
        "country": "Canada",
        "alias": [],
        "regions": [],
        "coordinates": [-123.6215503, 48.7373094],
        "timezone": "America/Vancouver",
        "unlocs": ["CACCB"],
        "code": "12231",
        "port_code": "CACCB"
      },
      "geometry": { "type": "Point", "coordinates": [-123.6215503, 48.7373094] }
    },
    {
      "properties": {
        "name": "Collingwood",
        "city": "Collingwood",
        "province": "Ontario",
        "country": "Canada",
        "alias": [],
        "regions": [],
        "coordinates": [-80.2169047, 44.50076869999999],
        "timezone": "America/Toronto",
        "unlocs": ["CACOL"],
        "code": "9000",
        "port_code": "CACOL"
      },
      "geometry": {
        "type": "Point",
        "coordinates": [-80.2169047, 44.50076869999999]
      }
    },
    {
      "properties": {
        "name": "Crofton",
        "city": "Crofton",
        "province": "British Columbia",
        "country": "Canada",
        "alias": [],
        "regions": [],
        "coordinates": [-123.6457977, 48.86384400000001],
        "timezone": "America/Vancouver",
        "unlocs": ["CACRO"],
        "code": "12234",
        "port_code": "CACRO"
      },
      "geometry": {
        "type": "Point",
        "coordinates": [-123.6457977, 48.86384400000001]
      }
    },
    {
      "properties": {
        "name": "Cornwall",
        "city": "Cornwall",
        "province": "Ontario",
        "country": "Canada",
        "alias": [],
        "regions": [],
        "coordinates": [-74.730345, 45.0212762],
        "timezone": "America/Toronto",
        "unlocs": ["CACWL"],
        "code": "1784",
        "port_code": "CACWL"
      },
      "geometry": { "type": "Point", "coordinates": [-74.730345, 45.0212762] }
    },
    {
      "properties": {
        "name": "Dorval",
        "city": "Dorval",
        "province": "Quebec",
        "country": "Canada",
        "alias": [],
        "regions": [],
        "coordinates": [-73.75004849999999, 45.4503213],
        "timezone": "America/Toronto",
        "unlocs": ["CADOR"],
        "code": "13400",
        "port_code": "CADOR"
      },
      "geometry": {
        "type": "Point",
        "coordinates": [-73.75004849999999, 45.4503213]
      }
    },
    {
      "properties": {
        "name": "Drummondville",
        "city": "Drummondville",
        "province": "Quebec",
        "country": "Canada",
        "alias": [],
        "regions": [],
        "coordinates": [-72.4842824, 45.8802909],
        "timezone": "America/Toronto",
        "unlocs": ["CADRU"],
        "code": "13400",
        "port_code": "CADRU"
      },
      "geometry": { "type": "Point", "coordinates": [-72.4842824, 45.8802909] }
    },
    {
      "properties": {
        "name": "Edmonton",
        "city": "Edmonton",
        "province": "Alberta",
        "country": "Canada",
        "alias": [],
        "regions": [],
        "coordinates": [-113.4909267, 53.544389],
        "timezone": "America/Edmonton",
        "unlocs": ["CAEDM"],
        "code": "12200",
        "port_code": "CAEDM"
      },
      "geometry": { "type": "Point", "coordinates": [-113.4909267, 53.544389] }
    },
    {
      "properties": {
        "name": "Halifax",
        "city": "Halifax",
        "province": "Nova Scotia",
        "country": "Canada",
        "alias": [],
        "regions": [],
        "coordinates": [-63.5753196, 44.6488625],
        "timezone": "America/Halifax",
        "unlocs": ["CAHAL"],
        "code": "13841",
        "port_code": "CAHAL"
      },
      "geometry": { "type": "Point", "coordinates": [-63.5753196, 44.6488625] }
    },
    {
      "properties": {
        "name": "Hamilton",
        "city": "Hamilton",
        "province": "Ontario",
        "country": "Canada",
        "alias": [],
        "regions": [],
        "coordinates": [-79.8660914, 43.25002080000001],
        "timezone": "America/Toronto",
        "unlocs": ["CAHAM"],
        "code": "23201",
        "port_code": "CAHAM"
      },
      "geometry": {
        "type": "Point",
        "coordinates": [-79.8660914, 43.25002080000001]
      }
    },
    {
      "properties": {
        "name": "Harmac",
        "coordinates": [-123.85, 49.13],
        "city": "Harmac",
        "province": "British Columbia",
        "country": "Canada",
        "alias": [],
        "regions": [],
        "timezone": "America/Vancouver",
        "unlocs": ["CAHMC"],
        "code": "12407",
        "port_code": "CAHMC"
      },
      "geometry": { "type": "Point", "coordinates": [-123.85, 49.13] }
    },
    {
      "properties": {
        "name": "Kingsville",
        "city": "Kingsville",
        "province": "Ontario",
        "country": "Canada",
        "alias": [],
        "regions": [],
        "coordinates": [-82.7389809, 42.0362841],
        "timezone": "America/Toronto",
        "unlocs": ["CAKVL"],
        "code": "3506",
        "port_code": "CAKVL"
      },
      "geometry": { "type": "Point", "coordinates": [-82.7389809, 42.0362841] }
    },
    {
      "properties": {
        "name": "Magog",
        "city": "Magog",
        "province": "Quebec",
        "country": "Canada",
        "alias": [],
        "regions": [],
        "coordinates": [-72.1479889, 45.2664863],
        "timezone": "America/Toronto",
        "unlocs": ["CAMAG"],
        "code": "13400",
        "port_code": "CAMAG"
      },
      "geometry": { "type": "Point", "coordinates": [-72.1479889, 45.2664863] }
    },
    {
      "properties": {
        "name": "Moncton",
        "city": "Moncton",
        "province": "New Brunswick",
        "country": "Canada",
        "alias": [],
        "regions": [],
        "coordinates": [-64.7782313, 46.0878165],
        "timezone": "America/Halifax",
        "unlocs": ["CAMNT"],
        "code": "13400",
        "port_code": "CAMNT"
      },
      "geometry": { "type": "Point", "coordinates": [-64.7782313, 46.0878165] }
    },
    {
      "properties": {
        "name": "Montreal",
        "city": "Montreal",
        "province": "Quebec",
        "country": "Canada",
        "alias": [],
        "regions": [],
        "coordinates": [-73.567256, 45.5016889],
        "timezone": "America/Toronto",
        "unlocs": ["CAMTR"],
        "code": "1822",
        "port_code": "CAMTR"
      },
      "geometry": { "type": "Point", "coordinates": [-73.567256, 45.5016889] }
    },
    {
      "properties": {
        "name": "Niagara Falls",
        "city": "Niagara Falls",
        "province": "Ontario",
        "country": "Canada",
        "alias": [],
        "regions": [],
        "coordinates": [-79.0849436, 43.0895577],
        "timezone": "America/Toronto",
        "unlocs": ["CANIA"],
        "code": "9000",
        "port_code": "CANIA"
      },
      "geometry": { "type": "Point", "coordinates": [-79.0849436, 43.0895577] }
    },
    {
      "properties": {
        "name": "Nanaimo",
        "city": "Nanaimo",
        "province": "British Columbia",
        "country": "Canada",
        "alias": [],
        "regions": [],
        "coordinates": [-123.9400647, 49.1658836],
        "timezone": "America/Vancouver",
        "unlocs": ["CANNO"],
        "code": "12406",
        "port_code": "CANNO"
      },
      "geometry": { "type": "Point", "coordinates": [-123.9400647, 49.1658836] }
    },
    {
      "properties": {
        "name": "North Bay",
        "coordinates": [-79.45, 46.3],
        "city": "North Bay",
        "province": "Ontario",
        "country": "Canada",
        "alias": [],
        "regions": [],
        "timezone": "America/Toronto",
        "unlocs": ["CANOR"],
        "code": "9000",
        "port_code": "CANOR"
      },
      "geometry": { "type": "Point", "coordinates": [-79.45, 46.3] }
    },
    {
      "properties": {
        "name": "New Westminster",
        "city": "New Westminster",
        "province": "British Columbia",
        "country": "Canada",
        "alias": [],
        "regions": [],
        "coordinates": [-122.910956, 49.2057179],
        "timezone": "America/Vancouver",
        "unlocs": ["CANWE"],
        "code": "12200",
        "port_code": "CANWE"
      },
      "geometry": { "type": "Point", "coordinates": [-122.910956, 49.2057179] }
    },
    {
      "properties": {
        "name": "Oakville",
        "city": "Oakville",
        "province": "Ontario",
        "country": "Canada",
        "alias": [],
        "regions": [],
        "coordinates": [-79.6876659, 43.467517],
        "timezone": "America/Toronto",
        "unlocs": ["CAOAK"],
        "code": "6770",
        "port_code": "CAOAK"
      },
      "geometry": { "type": "Point", "coordinates": [-79.6876659, 43.467517] }
    },
    {
      "properties": {
        "timezone": "America/Toronto",
        "coordinates": [-76.71829249999999, 44.2770379],
        "name": "Odessa",
        "city": "Odessa",
        "province": "Ontario",
        "country": "Canada",
        "alias": [],
        "regions": [],
        "unlocs": ["CAODE"],
        "code": "9000",
        "port_code": "CAODE"
      },
      "geometry": {
        "type": "Point",
        "coordinates": [-76.71829249999999, 44.2770379]
      }
    },
    {
      "properties": {
        "name": "Oshawa",
        "city": "Oshawa",
        "province": "Ontario",
        "country": "Canada",
        "alias": [],
        "regions": [],
        "coordinates": [-78.86579119999999, 43.8970929],
        "timezone": "America/Toronto",
        "unlocs": ["CAOSH"],
        "code": "9670",
        "port_code": "CAOSH"
      },
      "geometry": {
        "type": "Point",
        "coordinates": [-78.86579119999999, 43.8970929]
      }
    },
    {
      "properties": {
        "name": "Port Credit",
        "city": "Port Credit",
        "province": "Ontario",
        "country": "Canada",
        "alias": [],
        "regions": [],
        "coordinates": [-79.585628, 43.5516151],
        "timezone": "America/Toronto",
        "unlocs": ["CAPCR"],
        "code": "1530",
        "port_code": "CAPCR"
      },
      "geometry": { "type": "Point", "coordinates": [-79.585628, 43.5516151] }
    },
    {
      "properties": {
        "name": "Port Dover",
        "city": "Port Dover",
        "province": "Ontario",
        "country": "Canada",
        "alias": [],
        "regions": [],
        "coordinates": [-80.20327790000002, 42.7865225],
        "timezone": "America/Toronto",
        "unlocs": ["CAPDV"],
        "code": "9000",
        "port_code": "CAPDV"
      },
      "geometry": {
        "type": "Point",
        "coordinates": [-80.20327790000002, 42.7865225]
      }
    },
    {
      "properties": {
        "name": "Port Mellon",
        "city": "Port Mellon",
        "province": "British Columbia",
        "country": "Canada",
        "alias": [],
        "regions": [],
        "coordinates": [-123.4880588, 49.5217479],
        "timezone": "America/Vancouver",
        "unlocs": ["CAPML"],
        "code": "12428",
        "port_code": "CAPML"
      },
      "geometry": { "type": "Point", "coordinates": [-123.4880588, 49.5217479] }
    },
    {
      "properties": {
        "name": "Pointe-Claire",
        "coordinates": [-73.73, 45.43],
        "city": "Pointe-Claire",
        "province": "Quebec",
        "country": "Canada",
        "alias": [],
        "regions": [],
        "timezone": "America/Toronto",
        "unlocs": ["CAPOI"],
        "code": "13400",
        "port_code": "CAPOI"
      },
      "geometry": { "type": "Point", "coordinates": [-73.73, 45.43] }
    },
    {
      "properties": {
        "name": "Prince Rupert",
        "city": "Prince Rupert",
        "province": "British Columbia",
        "country": "Canada",
        "alias": [],
        "regions": [],
        "coordinates": [-130.3208187, 54.3150367],
        "timezone": "America/Vancouver",
        "unlocs": ["CAPRR"],
        "code": "12442",
        "port_code": "CAPRR"
      },
      "geometry": { "type": "Point", "coordinates": [-130.3208187, 54.3150367] }
    },
    {
      "properties": {
        "name": "Quebec",
        "city": "Quebec",
        "province": "Quebec",
        "country": "Canada",
        "alias": [],
        "regions": [],
        "coordinates": [-71.242796, 46.8032826],
        "timezone": "America/Toronto",
        "unlocs": ["CAQUE"],
        "code": "80109",
        "port_code": "CAQUE"
      },
      "geometry": { "type": "Point", "coordinates": [-71.242796, 46.8032826] }
    },
    {
      "properties": {
        "name": "Saskatoon",
        "city": "Saskatoon",
        "province": "Saskatchewan",
        "country": "Canada",
        "alias": [],
        "regions": [],
        "coordinates": [-106.6700458, 52.1332144],
        "timezone": "America/Regina",
        "unlocs": ["CASAK"],
        "code": "9000",
        "port_code": "CASAK"
      },
      "geometry": { "type": "Point", "coordinates": [-106.6700458, 52.1332144] }
    },
    {
      "properties": {
        "name": "Saint-Catharines",
        "coordinates": [-79.23, 43.17],
        "city": "Saint-Catharines",
        "province": "Ontario",
        "country": "Canada",
        "alias": [],
        "regions": [],
        "timezone": "America/Toronto",
        "unlocs": ["CASCA"],
        "code": "1690",
        "port_code": "CASCA"
      },
      "geometry": { "type": "Point", "coordinates": [-79.23, 43.17] }
    },
    {
      "properties": {
        "name": "Saint-John",
        "coordinates": [-66.07, 45.27],
        "city": "Saint-John",
        "province": "New Brunswick",
        "country": "Canada",
        "alias": [],
        "regions": [],
        "timezone": "America/Halifax",
        "unlocs": ["CASJB"],
        "code": "14428",
        "port_code": "CASJB"
      },
      "geometry": { "type": "Point", "coordinates": [-66.07, 45.27] }
    },
    {
      "properties": {
        "name": "Saint-John's",
        "coordinates": [-52.73, 47.57],
        "city": "Saint-John's",
        "province": "Newfoundland and Labrador",
        "country": "Canada",
        "alias": [],
        "regions": [],
        "timezone": "America/St_Johns",
        "unlocs": ["CASJF"],
        "code": "15282",
        "port_code": "CASJF"
      },
      "geometry": { "type": "Point", "coordinates": [-52.73, 47.57] }
    },
    {
      "properties": {
        "name": "Sarnia",
        "city": "Sarnia",
        "province": "Ontario",
        "country": "Canada",
        "alias": [],
        "regions": [],
        "coordinates": [-82.4065901, 42.974536],
        "timezone": "America/Toronto",
        "unlocs": ["CASNI"],
        "code": "5520",
        "port_code": "CASNI"
      },
      "geometry": { "type": "Point", "coordinates": [-82.4065901, 42.974536] }
    },
    {
      "properties": {
        "name": "Sorel",
        "city": "Sorel",
        "province": "Quebec",
        "country": "Canada",
        "alias": [],
        "regions": [],
        "coordinates": [-73.112302, 46.042825],
        "timezone": "America/Toronto",
        "unlocs": ["CASOR"],
        "code": "14466",
        "port_code": "CASOR"
      },
      "geometry": { "type": "Point", "coordinates": [-73.112302, 46.042825] }
    },
    {
      "properties": {
        "name": "Sault-Sainte-Marie",
        "city": "Sault-Sainte-Marie",
        "province": "Ontario",
        "country": "Canada",
        "alias": [],
        "regions": [],
        "coordinates": [-84.3460896, 46.52185799999999],
        "timezone": "America/Toronto",
        "unlocs": ["CASSM"],
        "code": "8525",
        "port_code": "CASSM"
      },
      "geometry": {
        "type": "Point",
        "coordinates": [-84.3460896, 46.52185799999999]
      }
    },
    {
      "properties": {
        "name": "Stoney Creek",
        "city": "Stoney Creek",
        "province": "Ontario",
        "country": "Canada",
        "alias": [],
        "regions": [],
        "coordinates": [-79.7195586, 43.2272182],
        "timezone": "America/Toronto",
        "unlocs": ["CASTC"],
        "code": "9000",
        "port_code": "CASTC"
      },
      "geometry": { "type": "Point", "coordinates": [-79.7195586, 43.2272182] }
    },
    {
      "properties": {
        "name": "Summerside",
        "city": "Summerside",
        "province": "Prince Edward Island",
        "country": "Canada",
        "alias": [],
        "regions": [],
        "coordinates": [-63.79023309999999, 46.39337769999999],
        "timezone": "America/Halifax",
        "unlocs": ["CASUM"],
        "code": "14470",
        "port_code": "CASUM"
      },
      "geometry": {
        "type": "Point",
        "coordinates": [-63.79023309999999, 46.39337769999999]
      }
    },
    {
      "properties": {
        "name": "Texada Island",
        "city": "Texada Island",
        "province": "British Columbia",
        "country": "Canada",
        "alias": [],
        "regions": [],
        "coordinates": [-124.4121947, 49.6596634],
        "timezone": "America/Vancouver",
        "unlocs": ["CATEX"],
        "code": "12206",
        "port_code": "CATEX"
      },
      "geometry": { "type": "Point", "coordinates": [-124.4121947, 49.6596634] }
    },
    {
      "properties": {
        "name": "Thunder Bay",
        "city": "Thunder Bay",
        "province": "Ontario",
        "country": "Canada",
        "alias": [],
        "regions": [],
        "coordinates": [-89.2476823, 48.3808951],
        "timezone": "America/Toronto",
        "unlocs": ["CATHU"],
        "code": "9662",
        "port_code": "CATHU"
      },
      "geometry": { "type": "Point", "coordinates": [-89.2476823, 48.3808951] }
    },
    {
      "properties": {
        "name": "Toronto",
        "city": "Toronto",
        "province": "Ontario",
        "country": "Canada",
        "alias": [],
        "regions": [],
        "coordinates": [-79.3831843, 43.653226],
        "timezone": "America/Toronto",
        "unlocs": ["CATOR"],
        "code": "1535",
        "port_code": "CATOR"
      },
      "geometry": { "type": "Point", "coordinates": [-79.3831843, 43.653226] }
    },
    {
      "properties": {
        "name": "Trois-Rivieres (Three Rivers)",
        "city": "Trois-Rivieres (Three Rivers)",
        "province": "Quebec",
        "country": "Canada",
        "alias": [],
        "regions": [],
        "coordinates": [-72.5475259, 46.35924199999999],
        "timezone": "America/Toronto",
        "unlocs": ["CATRR"],
        "code": "14474",
        "port_code": "CATRR"
      },
      "geometry": {
        "type": "Point",
        "coordinates": [-72.5475259, 46.35924199999999]
      }
    },
    {
      "properties": {
        "name": "Trenton",
        "city": "Trenton",
        "province": "Ontario",
        "country": "Canada",
        "alias": [],
        "regions": [],
        "coordinates": [-77.576313, 44.1011263],
        "timezone": "America/Toronto",
        "unlocs": ["CATTC"],
        "code": "9000",
        "port_code": "CATTC"
      },
      "geometry": { "type": "Point", "coordinates": [-77.576313, 44.1011263] }
    },
    {
      "properties": {
        "name": "Vancouver",
        "city": "Vancouver",
        "province": "British Columbia",
        "country": "Canada",
        "alias": [],
        "regions": [],
        "coordinates": [-123.1207375, 49.2827291],
        "timezone": "America/Vancouver",
        "unlocs": ["CAVAN"],
        "code": "12493",
        "port_code": "CAVAN"
      },
      "geometry": { "type": "Point", "coordinates": [-123.1207375, 49.2827291] }
    },
    {
      "properties": {
        "name": "Valleyfield",
        "coordinates": [-74.13, 45.25],
        "city": "Valleyfield",
        "province": "Quebec",
        "country": "Canada",
        "alias": [],
        "regions": [],
        "timezone": "America/Toronto",
        "unlocs": ["CAVLF"],
        "code": "14067",
        "port_code": "CAVLF"
      },
      "geometry": { "type": "Point", "coordinates": [-74.13, 45.25] }
    },
    {
      "properties": {
        "name": "Winona",
        "city": "Winona",
        "province": "Ontario",
        "country": "Canada",
        "alias": [],
        "regions": [],
        "coordinates": [-79.6509165, 43.2079596],
        "timezone": "America/Toronto",
        "unlocs": ["CAWIN"],
        "code": "9000",
        "port_code": "CAWIN"
      },
      "geometry": { "type": "Point", "coordinates": [-79.6509165, 43.2079596] }
    },
    {
      "properties": {
        "name": "Winnipeg",
        "city": "Winnipeg",
        "province": "Manitoba",
        "country": "Canada",
        "alias": [],
        "regions": [],
        "coordinates": [-97.1374937, 49.8997541],
        "timezone": "America/Winnipeg",
        "unlocs": ["CAWNP"],
        "code": "9000",
        "port_code": "CAWNP"
      },
      "geometry": { "type": "Point", "coordinates": [-97.1374937, 49.8997541] }
    },
    {
      "properties": {
        "name": "Boma",
        "city": "Boma",
        "country": "Congo, The Democratic Republic of the",
        "alias": [],
        "regions": [],
        "coordinates": [-5.8347218, 13.022875],
        "timezone": "Africa/Bamako",
        "unlocs": ["CDBOA"],
        "code": "76638",
        "port_code": "CDBOA"
      },
      "geometry": { "type": "Point", "coordinates": [-5.8347218, 13.022875] }
    },
    {
      "properties": {
        "name": "Matadi",
        "city": "Matadi",
        "country": "Congo, The Democratic Republic of the",
        "alias": [],
        "regions": [],
        "coordinates": [-5.8237941, 13.4509856],
        "timezone": "Africa/Bamako",
        "unlocs": ["CDMAT"],
        "code": "76637",
        "port_code": "CDMAT"
      },
      "geometry": { "type": "Point", "coordinates": [-5.8237941, 13.4509856] }
    },
    {
      "properties": {
        "name": "Pointe Noire",
        "city": "Pointe Noire",
        "country": "Congo",
        "alias": [],
        "regions": [],
        "coordinates": [11.866362, -4.7691623],
        "province": "Kouilou",
        "timezone": "Africa/Brazzaville",
        "unlocs": ["CGPNR"],
        "code": "76600",
        "port_code": "CGPNR"
      },
      "geometry": { "type": "Point", "coordinates": [11.866362, -4.7691623] }
    },
    {
      "properties": {
        "name": "Abidjan",
        "city": "Abidjan",
        "country": "C\u00f4te d'Ivoire",
        "alias": [],
        "regions": [],
        "coordinates": [-4.0082563, 5.3599517],
        "province": "Lagunes",
        "timezone": "Africa/Abidjan",
        "unlocs": ["CIABJ"],
        "code": "74825",
        "port_code": "CIABJ"
      },
      "geometry": { "type": "Point", "coordinates": [-4.0082563, 5.3599517] }
    },
    {
      "properties": {
        "name": "San-Pedro",
        "coordinates": [-6.62, 4.73],
        "city": "San-P\u00e9dro",
        "province": "Bas-Sassandra (R\u00e9gion du)",
        "country": "C\u00f4te d'Ivoire",
        "alias": [],
        "regions": [],
        "timezone": "Africa/Abidjan",
        "unlocs": ["CISPY"],
        "port_code": "CISPY"
      },
      "geometry": { "type": "Point", "coordinates": [-6.62, 4.73] }
    },
    {
      "properties": {
        "name": "Antofagasta",
        "coordinates": [-70.38, -23.63],
        "city": "Antofagasta",
        "province": "Antofagasta",
        "country": "Chile",
        "alias": [],
        "regions": [],
        "timezone": "America/Santiago",
        "unlocs": ["CLANF"],
        "code": "33703",
        "port_code": "CLANF"
      },
      "geometry": { "type": "Point", "coordinates": [-70.38, -23.63] }
    },
    {
      "properties": {
        "name": "Arica",
        "coordinates": [-70.32, -18.48],
        "city": "Arica",
        "province": "Arica y Parinacota",
        "country": "Chile",
        "alias": [],
        "regions": [],
        "timezone": "America/Santiago",
        "unlocs": ["CLARI"],
        "code": "33706",
        "port_code": "CLARI"
      },
      "geometry": { "type": "Point", "coordinates": [-70.32, -18.48] }
    },
    {
      "properties": {
        "name": "Bahia San Gregorio",
        "coordinates": [-70.13, -52.62],
        "city": "Bah\u00eda San Gregorio",
        "province": "Magallanes",
        "country": "Chile",
        "alias": [],
        "regions": [],
        "timezone": "America/Santiago",
        "unlocs": ["CLBAG"],
        "code": "33700",
        "port_code": "CLBAG"
      },
      "geometry": { "type": "Point", "coordinates": [-70.13, -52.62] }
    },
    {
      "properties": {
        "name": "Barquito",
        "coordinates": [-70.63, -26.35],
        "city": "Barquito",
        "province": "Atacama",
        "country": "Chile",
        "alias": [],
        "regions": [],
        "timezone": "America/Santiago",
        "unlocs": ["CLBAR"],
        "code": "33700",
        "port_code": "CLBAR"
      },
      "geometry": { "type": "Point", "coordinates": [-70.63, -26.35] }
    },
    {
      "properties": {
        "name": "San Vicente",
        "city": "San Vicente",
        "province": "CAP",
        "country": "Chile",
        "alias": [],
        "regions": [],
        "coordinates": [-4.397057999999999, 43.3813069],
        "timezone": "Europe/Madrid",
        "unlocs": ["CLCAP"],
        "code": "33780",
        "port_code": "CLCAP"
      },
      "geometry": {
        "type": "Point",
        "coordinates": [-4.397057999999999, 43.3813069]
      }
    },
    {
      "properties": {
        "name": "Calbuco",
        "coordinates": [-73.13, -41.75],
        "city": "Calbuco",
        "province": "Los Lagos",
        "country": "Chile",
        "alias": [],
        "regions": [],
        "timezone": "America/Santiago",
        "unlocs": ["CLCBC"],
        "code": "33700",
        "port_code": "CLCBC"
      },
      "geometry": { "type": "Point", "coordinates": [-73.13, -41.75] }
    },